{
   "type": "FeatureCollection",
   "features": [
  {
    "type": "Feature",
    "geometry": {
       "type": "Point",
       "coordinates":  [ -76.54855115,43.45099735 ]
    },
    "properties": {
    "Building #":"33",
    "Name":"Cayuga Hall",
    "Code":"CAYUGA-33",
    "AddressText":"20 Cayuga Circle,Oswego,NY,13126",
    "Dummy Data":50
    }
  },
  {
    "type": "Feature",
    "geometry": {
       "type": "Point",
       "coordinates":  [ -76.53857341,43.45613191 ]
    },
    "properties": {
    "Building #":"004A",
    "Name":"Lee Hall Central Heating Plant",
    "Code":"CHP-4A",
    "AddressText":"38 Centennial Drive,Oswego,NY,13126",
    "Dummy Data":50
    }
  },
  {
    "type": "Feature",
    "geometry": {
       "type": "Point",
       "coordinates":  [ -76.53790826,43.44741743 ]
    },
    "properties": {
    "Building #":"11",
    "Name":"Commissary Bldg",
    "Code":"COMMISSARY-11",
    "AddressText":"78 Mollison St,Oswego,NY,13126",
    "Dummy Data":50
    }
  },
  {
    "type": "Feature",
    "geometry": {
       "type": "Point",
       "coordinates":  [ -76.54221547,43.45253369 ]
    },
    "properties": {
    "Building #":"47",
    "Name":"Cooper Dining Hall",
    "Code":"COOPER-47",
    "AddressText":"19 Union RD,Oswego,NY,13126",
    "Dummy Data":50
    }
  },
  {
    "type": "Feature",
    "geometry": {
       "type": "Point",
       "coordinates":  [ -76.54424969,43.45139873 ]
    },
    "properties": {
    "Building #":"26",
    "Name":"Culkin Hall",
    "Code":"CULKIN-26",
    "AddressText":"72 Sweet Rd,Oswego,NY,13126",
    "Dummy Data":50
    }
  },
  {
    "type": "Feature",
    "geometry": {
       "type": "Point",
       "coordinates":  [ -76.54239655,43.42898941 ]
    },
    "properties": {
    "Building #":"FALL",
    "Name":"Fallbrook Recreation Center",
    "Code":"FALL",
    "AddressText":"103 Thopson Rd,Oswego,NY,13126",
    "Dummy Data":50
    }
  },
  {
    "type": "Feature",
    "geometry": {
       "type": "Point",
       "coordinates":  [ -76.54170429,43.45249294 ]
    },
    "properties": {
    "Building #":"48",
    "Name":"Funnelle Hall",
    "Code":"FUNNELLE-48",
    "AddressText":"25 Union Rd,Oswego,NY,13126",
    "Dummy Data":50
    }
  },
  {
    "type": "Feature",
    "geometry": {
       "type": "Point",
       "coordinates":  [ -76.54274965,43.45247644 ]
    },
    "properties": {
    "Building #":"46",
    "Name":"Hart Hall",
    "Code":"HART-46",
    "AddressText":"15 Union Rd,Oswego,NY,13126",
    "Dummy Data":50
    }
  },
  {
    "type": "Feature",
    "geometry": {
       "type": "Point",
       "coordinates":  [ -76.54409919,43.45245495 ]
    },
    "properties": {
    "Building #":"29",
    "Name":"Hewitt Hall",
    "Code":"HEWITT-29",
    "AddressText":"5 Union Rd,Oswego,NY,13126",
    "Dummy Data":50
    }
  },
  {
    "type": "Feature",
    "geometry": {
       "type": "Point",
       "coordinates":  [ -76.53786876,43.45789035 ]
    },
    "properties": {
    "Building #":"41",
    "Name":"Johnson Hall",
    "Code":"JOHNSON-41",
    "AddressText":"20 Rudolph Rd,Oswego,NY,13126",
    "Dummy Data":50
    }
  },
  {
    "type": "Feature",
    "geometry": {
       "type": "Point",
       "coordinates":  [ -76.53645154,43.4533472 ]
    },
    "properties": {
    "Building #":"22",
    "Name":"King Hall",
    "Code":"KING-22",
    "AddressText":"294 George Washington Blvd,Oswego,NY,13126",
    "Dummy Data":50
    }
  },
  {
    "type": "Feature",
    "geometry": {
       "type": "Point",
       "coordinates":  [ -76.535475,43.44628716 ]
    },
    "properties": {
    "Building #":"19",
    "Name":"Laker Hall",
    "Code":"LAKER-19",
    "AddressText":"30 Barnes Rd,Oswego,NY,13126",
    "Dummy Data":50
    }
  },
  {
    "type": "Feature",
    "geometry": {
       "type": "Point",
       "coordinates":  [ -76.53929901,43.45690536 ]
    },
    "properties": {
    "Building #":"42",
    "Name":"Lakeside Dining Hall",
    "Code":"LAKESIDE-42",
    "AddressText":"24 Rudolph Rd,Oswego,NY,13126",
    "Dummy Data":50
    }
  },
  {
    "type": "Feature",
    "geometry": {
       "type": "Point",
       "coordinates":  [ -76.54489509,43.4536961 ]
    },
    "properties": {
    "Building #":"6",
    "Name":"Lanigan Hall",
    "Code":"LANIGAN-6",
    "AddressText":"67 Rudolph Rd,Oswego,NY,13126",
    "Dummy Data":50
    }
  },
  {
    "type": "Feature",
    "geometry": {
       "type": "Point",
       "coordinates":  [ -76.5378917,43.45614809 ]
    },
    "properties": {
    "Building #":"4",
    "Name":"Lee Hall",
    "Code":"LEE-4",
    "AddressText":"38 Centennial Drive,Oswego,NY,13126",
    "Dummy Data":50
    }
  },
  {
    "type": "Feature",
    "geometry": {
       "type": "Point",
       "coordinates":  [ -76.54878234,43.44997596 ]
    },
    "properties": {
    "Building #":"35",
    "Name":"Littlepage Dining Hall",
    "Code":"LITTLEPAGE-35",
    "AddressText":"16 Onondaga Cir,Oswego,NY,13126",
    "Dummy Data":50
    }
  },
  {
    "type": "Feature",
    "geometry": {
       "type": "Point",
       "coordinates":  [ -76.53426254,43.4551238 ]
    },
    "properties": {
    "Building #":"015B",
    "Name":"Lonis Hall",
    "Code":"LONIS-15B",
    "AddressText":"49 Sheldon Ave,Oswego,NY,13126",
    "Dummy Data":50
    }
  },
  {
    "type": "Feature",
    "geometry": {
       "type": "Point",
       "coordinates":  [ -76.53428363,43.45478688 ]
    },
    "properties": {
    "Building #":"15",
    "Name":"Mackin Hall",
    "Code":"MACKIN-15",
    "AddressText":"53 Sheldon Ave,Oswego,NY,13126",
    "Dummy Data":50
    }
  },
  {
    "type": "Feature",
    "geometry": {
       "type": "Point",
       "coordinates":  [ -76.54565137,43.45296805 ]
    },
    "properties": {
    "Building #":"13",
    "Name":"Mahar Hall",
    "Code":"MAHAR-13",
    "AddressText":"71 Rudolph Rd,Oswego,NY,13126",
    "Dummy Data":50
    }
  },
  {
    "type": "Feature",
    "geometry": {
       "type": "Point",
       "coordinates":  [ -76.53719091,43.44757367 ]
    },
    "properties": {
    "Building #":"12",
    "Name":"Maintenance Bldg 12",
    "Code":"MAINTENANCE-12",
    "AddressText":"82 Mollison St,Oswego,NY,13126",
    "Dummy Data":50
    }
  },
  {
    "type": "Feature",
    "geometry": {
       "type": "Point",
       "coordinates":  [ -76.53452976,43.45419471 ]
    },
    "properties": {
    "Building #":"015A",
    "Name":"Moreland Hall",
    "Code":"MORELAND-15A",
    "AddressText":"57 Sheldon Ave,Oswego,NY,13126",
    "Dummy Data":50
    }
  },
  {
    "type": "Feature",
    "geometry": {
       "type": "Point",
       "coordinates":  [ -76.55001178,43.44944169 ]
    },
    "properties": {
    "Building #":"36",
    "Name":"Oneida Hall",
    "Code":"ONEIDA-36",
    "AddressText":"10 Onondaga Cir,Oswego,NY,13126",
    "Dummy Data":50
    }
  },
  {
    "type": "Feature",
    "geometry": {
       "type": "Point",
       "coordinates":  [ -76.54949581,43.45052896 ]
    },
    "properties": {
    "Building #":"34",
    "Name":"Onondaga Hall",
    "Code":"ONONDAGA-34",
    "AddressText":"20 Onondaga Cir,Oswego,NY,13126",
    "Dummy Data":50
    }
  },
  {
    "type": "Feature",
    "geometry": {
       "type": "Point",
       "coordinates":  [ -76.53680568,43.4552485 ]
    },
    "properties": {
    "Building #":"2",
    "Name":"Park Hall",
    "Code":"PARK-2",
    "AddressText":"22 Takamine St,Oswego,NY,13126",
    "Dummy Data":50
    }
  },
  {
    "type": "Feature",
    "geometry": {
       "type": "Point",
       "coordinates":  [ -76.5479133,43.45067306 ]
    },
    "properties": {
    "Building #":"31",
    "Name":"Pathfinder Dining Hall",
    "Code":"PATHFINDER-31",
    "AddressText":"30 Cayuga Cir,Oswego,NY,13126",
    "Dummy Data":50
    }
  },
  {
    "type": "Feature",
    "geometry": {
       "type": "Point",
       "coordinates":  [ -76.54398593,43.45376408 ]
    },
    "properties": {
    "Building #":"17",
    "Name":"Penfield Library",
    "Code":"PENFIELD-17",
    "AddressText":"59 Rudolph Rd,Oswego,NY,13126",
    "Dummy Data":50
    }
  },
  {
    "type": "Feature",
    "geometry": {
       "type": "Point",
       "coordinates":  [ -76.53838687,43.45479711 ]
    },
    "properties": {
    "Building #":"8",
    "Name":"Shineman Center",
    "Code":"SHINEMAN-8",
    "AddressText":"30 Centennial Dr,Oswego,NY,13126",
    "Dummy Data":50
    }
  },
  {
    "type": "Feature",
    "geometry": {
       "type": "Point",
       "coordinates":  [ -76.53966603,43.45484225 ]
    },
    "properties": {
    "Building #":"003A",
    "Name":"Poucher Hall",
    "Code":"POUCHER-3A",
    "AddressText":"25 Centennial Dr,Oswego,NY,13126",
    "Dummy Data":50
    }
  },
  {
    "type": "Feature",
    "geometry": {
       "type": "Point",
       "coordinates":  [ -76.55011063,43.43000643 ]
    },
    "properties": {
    "Building #":"23",
    "Name":"Rice Creek Field Station",
    "Code":"RICE-23",
    "AddressText":"193 Thompson Rd,Oswego,NY,13126",
    "Dummy Data":50
    }
  },
  {
    "type": "Feature",
    "geometry": {
       "type": "Point",
       "coordinates":  [ -76.53522645,43.45560315 ]
    },
    "properties": {
    "Building #":"14",
    "Name":"Rich Hall",
    "Code":"RICH-14",
    "AddressText":"32 Sheldon Ave,Oswego,NY,13126",
    "Dummy Data":50
    }
  },
  {
    "type": "Feature",
    "geometry": {
       "type": "Point",
       "coordinates":  [ -76.53933666,43.4572598 ]
    },
    "properties": {
    "Building #":"43",
    "Name":"Riggs Hall",
    "Code":"RIGGS-43",
    "AddressText":"28 Rudolph Rd,Oswego,NY,13126",
    "Dummy Data":50
    }
  },
  {
    "type": "Feature",
    "geometry": {
       "type": "Point",
       "coordinates":  [ -76.53471071,43.44781308 ]
    },
    "properties": {
    "Building #":"21",
    "Name":"Romney Field House",
    "Code":"ROMNEY-21",
    "AddressText":"28 Barnes Rd,Oswego,NY,",
    "Dummy Data":50
    }
  },
  {
    "type": "Feature",
    "geometry": {
       "type": "Point",
       "coordinates":  [ -76.54177132,43.45612546 ]
    },
    "properties": {
    "Building #":"45",
    "Name":"Scales Hall",
    "Code":"SCALES-45",
    "AddressText":"34 Rudolph Rd,Oswego,NY,13126",
    "Dummy Data":50
    }
  },
  {
    "type": "Feature",
    "geometry": {
       "type": "Point",
       "coordinates":  [ -76.54738351,43.45127648 ]
    },
    "properties": {
    "Building #":"32",
    "Name":"Seneca Hall",
    "Code":"SENECA-32",
    "AddressText":"47 Cayuga Circle,Oswego,NY,13126",
    "Dummy Data":50
    }
  },
  {
    "type": "Feature",
    "geometry": {
       "type": "Point",
       "coordinates":  [ -76.53429067,43.45558323 ]
    },
    "properties": {
    "Building #":"20",
    "Name":"Service Bldg. 20",
    "Code":"SERVICE BLDG-20",
    "AddressText":"25 Sheldon Ae,Oswego,NY,13126",
    "Dummy Data":50
    }
  },
  {
    "type": "Feature",
    "geometry": {
       "type": "Point",
       "coordinates":  [ -76.53686257,43.4480404 ]
    },
    "properties": {
    "Building #":"28",
    "Name":"Sewage Main Lift Station",
    "Code":"LIFT STAT MAIN-28",
    "AddressText":"42 Rudolph Road,Oswego,NY,13126",
    "Dummy Data":50
    }
  },
  {
    "type": "Feature",
    "geometry": {
       "type": "Point",
       "coordinates":  [ -76.5367407,43.4579954 ]
    },
    "properties": {
    "Building #":"0028A",
    "Name":"Sewage Pump Station-Seneca",
    "Code":"PUMP STAT-28A",
    "AddressText":"47 Cayuga Cir,Oswego,NY,13126",
    "Dummy Data":50
    }
  },
  {
    "type": "Feature",
    "geometry": {
       "type": "Point",
       "coordinates":  [ -76.53686279,43.44806132 ]
    },
    "properties": {
    "Building #":"0028B",
    "Name":"Sewage Pump Station-Bldg 12",
    "Code":"PUMP STAT-28B",
    "AddressText":"82 Mollison St,Oswego,NY,13126",
    "Dummy Data":50
    }
  },
  {
    "type": "Feature",
    "geometry": {
       "type": "Point",
       "coordinates":  [ -76.53677207,43.45803543 ]
    },
    "properties": {
    "Building #":"5",
    "Name":"Shady Shore",
    "Code":"SHADY SHORE-5",
    "AddressText":"6 Rudolph Rd,Oswego,NY,13126",
    "Dummy Data":50
    }
  },
  {
    "type": "Feature",
    "geometry": {
       "type": "Point",
       "coordinates":  [ -76.53601713,43.45432985 ]
    },
    "properties": {
    "Building #":"1",
    "Name":"Sheldon Hall",
    "Code":"SHELDON-1",
    "AddressText":"303 George Washington Blvd,Oswego,NY,13125",
    "Dummy Data":50
    }
  },
  {
    "type": "Feature",
    "geometry": {
       "type": "Point",
       "coordinates":  [ -76.54081195,43.45419096 ]
    },
    "properties": {
    "Building #":"3",
    "Name":"Marano Campus Center",
    "Code":"MARANO CC-3",
    "AddressText":"315 George Washington Blvd,Oswego,NY,13126",
    "Dummy Data":50
    }
  },
  {
    "type": "Feature",
    "geometry": {
       "type": "Point",
       "coordinates":  [ -76.54537784,43.45181789 ]
    },
    "properties": {
    "Building #":"7",
    "Name":"Tyler Hall",
    "Code":"TYLER-7",
    "AddressText":"71 Sweet Rd,Oswego,NY,13126",
    "Dummy Data":50
    }
  },
  {
    "type": "Feature",
    "geometry": {
       "type": "Point",
       "coordinates":  [ -76.54274845,43.45572567 ]
    },
    "properties": {
    "Building #":"10",
    "Name":"Mary Walker Infirmary",
    "Code":"WALKER-10",
    "AddressText":"40 Rudolph Rd,Oswego,NY,13126",
    "Dummy Data":50
    }
  },
  {
    "type": "Feature",
    "geometry": {
       "type": "Point",
       "coordinates":  [ -76.54052769,43.45668646 ]
    },
    "properties": {
    "Building #":"44",
    "Name":"Waterbury Hall",
    "Code":"WATERBURY-44",
    "AddressText":"30 Rudolph Rd,Oswego,NY,13126",
    "Dummy Data":50
    }
  },
  {
    "type": "Feature",
    "geometry": {
       "type": "Point",
       "coordinates":  [ -76.53482627,43.4498761 ]
    },
    "properties": {
    "Building #":"9",
    "Name":"Wilber Hall",
    "Code":"WILBER-9",
    "AddressText":"24 Takamine St,Oswego,NY,13126",
    "Dummy Data":50
    }
  },
  {
    "type": "Feature",
    "geometry": {
       "type": "Point",
       "coordinates":  [ -76.54036105,43.44775726 ]
    },
    "properties": {
    "Building #":"104",
    "Name":"Campus Police Parking Office",
    "Code":"PARKING-104",
    "AddressText":"7044 State Rt 104,Oswego NY,NY,13126",
    "Dummy Data":50
    }
  },
  {
    "type": "Feature",
    "geometry": {
       "type": "Point",
       "coordinates":  [ -76.53481839,43.44986994 ]
    },
    "properties": {
    "Building #":"107",
    "Name":"One Room School House",
    "Code":"SCHOOL HOUSE-107",
    "AddressText":"7061 Rte 104,Oswego,NY,13126",
    "Dummy Data":50
    }
  },
  {
    "type": "Feature",
    "geometry": {
       "type": "Point",
       "coordinates":  [ -76.54217106,43.45379116 ]
    },
    "properties": {
    "Building #":"003B",
    "Name":"Convocation Center",
    "Code":"CONVOCATION CTR-3B",
    "AddressText":"55 Rudolph Rd,Oswego,NY,13126",
    "Dummy Data":50
    }
  },
  {
    "type": "Feature",
    "geometry": {
       "type": "Point",
       "coordinates":  [ -76.54894263,43.44736208 ]
    },
    "properties": {
    "Building #":"0037B",
    "Name":"TOWNHOUSE B",
    "Code":"TWNHSB",
    "AddressText":"90 Iroquois Trail,Oswego NY,NY,13126",
    "Dummy Data":50
    }
  },
  {
    "type": "Feature",
    "geometry": {
       "type": "Point",
       "coordinates":  [ -76.54883103,43.44793911 ]
    },
    "properties": {
    "Building #":"0037C",
    "Name":"TOWNHOUSE C",
    "Code":"TWNHSC",
    "AddressText":"90 Iroquois Trail,Oswego NY,NY,13126",
    "Dummy Data":50
    }
  },
  {
    "type": "Feature",
    "geometry": {
       "type": "Point",
       "coordinates":  [ -76.54856651,43.44783919 ]
    },
    "properties": {
    "Building #":"0037D",
    "Name":"TOWNHOUSE D",
    "Code":"TWNHSD",
    "AddressText":"90 Iroquois Trail,Oswego NY,NY,13126",
    "Dummy Data":50
    }
  },
  {
    "type": "Feature",
    "geometry": {
       "type": "Point",
       "coordinates":  [ -76.54843342,43.44844545 ]
    },
    "properties": {
    "Building #":"0037E",
    "Name":"TOWNHOUSE E",
    "Code":"TWNHSE",
    "AddressText":"90 Iroquois Trail,Oswego NY,NY,13126",
    "Dummy Data":50
    }
  },
  {
    "type": "Feature",
    "geometry": {
       "type": "Point",
       "coordinates":  [ -76.54818168,43.44832695 ]
    },
    "properties": {
    "Building #":"0037F",
    "Name":"TOWNHOUSE F",
    "Code":"TWNHSF",
    "AddressText":"90 Iroquois Trail,Oswego NY,NY,13126",
    "Dummy Data":50
    }
  },
  {
    "type": "Feature",
    "geometry": {
       "type": "Point",
       "coordinates":  [ -76.54818168,43.44714524 ]
    },
    "properties": {
    "Building #":"0037G",
    "Name":"TOWNHOUSE G",
    "Code":"TWNHSG",
    "AddressText":"80 Iroquois Trail,Oswego NY,NY,13126",
    "Dummy Data":50
    }
  },
  {
    "type": "Feature",
    "geometry": {
       "type": "Point",
       "coordinates":  [ -76.54843718,43.44699903 ]
    },
    "properties": {
    "Building #":"0037H",
    "Name":"TOWNHOUSE H",
    "Code":"TWNHSH",
    "AddressText":"80 Iroquois Trail,Oswego NY,NY,13126",
    "Dummy Data":50
    }
  },
  {
    "type": "Feature",
    "geometry": {
       "type": "Point",
       "coordinates":  [ -76.54808949,43.44750169 ]
    },
    "properties": {
    "Building #":"0037I",
    "Name":"TOWNHOUSE I",
    "Code":"TWNHSI",
    "AddressText":"80 Iroquois Trail,Oswego NY,NY,13126",
    "Dummy Data":50
    }
  },
  {
    "type": "Feature",
    "geometry": {
       "type": "Point",
       "coordinates":  [ -76.54788408,43.44733316 ]
    },
    "properties": {
    "Building #":"0037J",
    "Name":"TOWNHOUSE J",
    "Code":"TWNHSJ",
    "AddressText":"80 Iroquois Trail,Oswego NY,NY,13126",
    "Dummy Data":50
    }
  },
  {
    "type": "Feature",
    "geometry": {
       "type": "Point",
       "coordinates":  [ -76.54749766,43.44786379 ]
    },
    "properties": {
    "Building #":"0037K",
    "Name":"TOWNHOUSE K",
    "Code":"TWNHSK",
    "AddressText":"80 Iroquois Trail,Oswego NY,NY,13126",
    "Dummy Data":50
    }
  },
  {
    "type": "Feature",
    "geometry": {
       "type": "Point",
       "coordinates":  [ -76.54920555,43.44744367 ]
    },
    "properties": {
    "Building #":"0037A",
    "Name":"TOWNHOUSE A",
    "Code":"TWNHSA",
    "AddressText":"90 Iroquois Trail,Oswego NY,NY,13126",
    "Dummy Data":50
    }
  },
  {
    "type": "Feature",
    "geometry": {
       "type": "Point",
       "coordinates":  [ -76.54727027,43.44771799 ]
    },
    "properties": {
    "Building #":"0037l",
    "Name":"TOWNHOUSE L",
    "Code":"TWNHSL",
    "AddressText":"80 Iroquois Trail,Oswego NY,NY,13126",
    "Dummy Data":50
    }
  },
  {
    "type": "Feature",
    "geometry": {
       "type": "Point",
       "coordinates":  [ -76.153645,43.050786 ]
    },
    "properties": {
    "Building #":"53",
    "Name":"Syracuse Branch Campus",
    "Code":"SYRACUSE-53",
    "AddressText":"2 S Clinton St,Syracuse,NY,13202",
    "Dummy Data":50
    }
  },
  {
    "type": "Feature",
    "geometry": {
       "type": "Point",
       "coordinates":  [ -76.54930654,43.43044426 ]
    },
    "properties": {
    "Building #":"24",
    "Name":"Rice Creek Garage",
    "Code":"RICE GAR-24",
    "AddressText":"193 Thompson Rd,Oswego,NY,13126",
    "Dummy Data":50
    }
  },
  {
    "type": "Feature",
    "geometry": {
       "type": "Point",
       "coordinates":  [ -76.5071273,43.4575571 ]
    },
    "properties": {
    "Building #":"003C",
    "Name":"Campus Center Storge Bldg",
    "Code":"CAMP CTR STOR-3C",
    "AddressText":"6 Rudolph Rd,Oswego,NY,13126",
    "Dummy Data":50
    }
  },
  {
    "type": "Feature",
    "geometry": {
       "type": "Point",
       "coordinates":  [ -76.507488,43.457291 ]
    },
    "properties": {
    "Building #":"71",
    "Name":"Pole Barn",
    "Code":"POLE BARN-71",
    "AddressText":"76 Mollison St,Oswego,NY,13126",
    "Dummy Data":50
    }
  },
  {
    "type": "Feature",
    "geometry": {
       "type": "Point",
       "coordinates":  [ -76.507488,43.43015216 ]
    },
    "properties": {
    "Building #":"0005A",
    "Name":"Shady Shore Garage",
    "Code":"SHADY SHORE GAR-5A",
    "AddressText":"6 Rudolph Rd,Oswego,NY,13126",
    "Dummy Data":50
    }
  },
  {
    "type": "Feature",
    "geometry": {
       "type": "Point",
       "coordinates":  [ -76.50706049,43.4575622 ]
    },
    "properties": {
    "Building #":"84",
    "Name":"Office of Business and Community Relations",
    "Code":"BUS & COMM REL-84",
    "AddressText":"34 East Bridge St,Oswego,NY,13126",
    "Dummy Data":50
    }
  },
  {
    "type": "Feature",
    "geometry": {
       "type": "Point",
       "coordinates":  [ -76.507556,43.457462 ]
    },
    "properties": {
    "Building #":"85",
    "Name":"Business Resource Center",
    "Code":"BUS RES CEN-85",
    "AddressText":"121 East First St,Oswego,NY,13126",
    "Dummy Data":50
    }
  },
  {
    "type": "Feature",
    "geometry": {
       "type": "Point",
       "coordinates":  [ -76.55000144,43.430151 ]
    },
    "properties": {
    "Building #":"83",
    "Name":"Rice Creek Pavilion",
    "Code":"RICE PAV-83",
    "AddressText":"193 Thompson Rd,Oswego,NY,13126",
    "Dummy Data":50
    }
  },
  {
    "type": "Feature",
    "geometry": {
       "type": "Point",
       "coordinates":  [ -76.55012031,43.43001758 ]
    },
    "properties": {
    "Building #":"81",
    "Name":"Rice Creek Observatory",
    "Code":"RICE OBSER-81",
    "AddressText":"193 Thompson Rd,Oswego,NY,13126",
    "Dummy Data":50
    }
  },
  {
    "type": "Feature",
    "geometry": {
       "type": "Point",
       "coordinates":  [ -76.53371142,43.4477548 ]
    },
    "properties": {
    "Building #":"82",
    "Name":"Press Box",
    "Code":"PRESS BOX-82",
    "AddressText":"21 Barnes Dr,Oswego,NY,13126",
    "Dummy Data":50
    }
  },
  {
    "type": "Feature",
    "geometry": {
       "type": "Point",
       "coordinates":  [ -76.507488,43.457291 ]
    },
    "properties": {
    "Building #":"0",
    "Name":"Campus Whole",
    "Code":"",
    "AddressText":"76 Mollison St,Oswego,NY,13126",
    "Dummy Data":50
    }
  }
]
}